city,city_ascii,state_id,state_name,county_name,county_fips,zip,lat,lng,population,source,id
New York,New York,NY,New York,New York,36061,11229 11228 11226 11225 11224 11223 11221 11220 11385 10169 10168 10167 10165 10162 10282 10280 10040 10044 11109 11102 11103 11101 11104 11105 11377 11697 11694 11692 11693 11691 10271 10279 10278 10075 10303 10301 10452 11451 10475 10474 10471 10470 10473 10472 11222 10103 11368 11369 11366 11367 11365 11362 11363 11360 11361 10028 10029 10026 10027 10024 10025 10022 10023 10020 10021 11212 11213 11210 11211 11216 11217 11214 11215 11218 11219 10152 10153 10154 10307 11429 10310 10311 10312 10314 11432 11433 11430 11436 11434 11435 10453 10451 10457 10456 10455 10454 10459 10458 10128 10004 10005 10006 10007 10001 10002 10003 10009 11238 11239 11230 11231 11232 11233 11234 11235 11236 11237 11379 11378 11375 11374 11371 11370 11373 11372 10170 10171 10172 10173 10174 10177 11356 10039 10038 10035 10034 10037 10036 10031 10030 10033 10032 11201 11203 11205 11204 11207 11206 11209 11208 11411 11412 11413 11414 11415 11416 11417 11418 11419 11106 11001 11005 11004 10065 10069 10199 10309 10308 10306 10305 10304 10302 11428 11421 11420 11423 11422 11425 11424 11427 11426 10466 10467 10464 10465 10462 10463 10460 10461 10468 10469 10119 10115 10112 10110 10111 11364 11359 11358 11351 11357 11355 11354 10019 10018 10013 10012 10011 10010 10017 10016 10014 10008 10041 10043 10045 10055 10060 10080 10081 10087 10090 10101 10102 10104 10105 10106 10107 10108 10109 10113 10114 10116 10117 10118 10120 10121 10122 10123 10124 10125 10126 10129 10130 10131 10132 10133 10138 10150 10151 10155 10156 10157 10158 10159 10160 10163 10164 10166 10175 10176 10178 10179 10185 10203 10211 10212 10213 10242 10249 10256 10258 10259 10260 10261 10265 10268 10269 10270 10272 10273 10274 10275 10276 10277 10281 10285 10286 10313 11120 11202 11241 11242 11243 11245 11247 11249 11251 11252 11256 11352 11380 11381 11386 11405 11431 11439 11499 11690 11695,40.76149276,-73.98143112,8175133,polygon,1840008329
Los Angeles,Los Angeles,CA,California,Los Angeles,6037,91367 90291 90293 90292 91316 91311 90035 90038 90008 90004 90005 90006 90007 90001 90002 90003 91040 90710 90089 91344 91345 91340 91342 91343 90034 90037 90036 90031 90033 90039 90247 91436 91371 91608 91605 91604 91607 91606 91601 91602 90402 90068 90062 90063 90061 90066 90067 90064 90065 90248 91326 91324 91325 90013 90012 90011 90010 90017 90016 90015 90014 90019 91364 90090 90095 90094 91042 91411 91352 91356 90041 90042 90043 90044 90045 90046 90047 90048 90049 90018 91423 90210 91303 91304 91306 91307 90079 90071 90077 91331 91330 91335 90026 90027 90024 90025 90023 90020 90021 90028 90272 90732 90731 90029 90230 91406 91405 91403 91402 91401 90032 90069 90057 90059 90058 90744 90501 90502 90009 90030 90050 90051 90053 90054 90055 90070 90072 90074 90075 90076 90078 90080 90081 90082 90083 90084 90086 90087 90088 90093 90099 90189 90213 90294 90296 90733 90734 90748 91041 91043 91305 91308 91309 91313 91327 91328 91329 91333 91334 91337 91346 91353 91357 91365 91392 91393 91394 91395 91396 91404 91407 91408 91409 91410 91412 91413 91416 91426 91470 91482 91495 91496 91499 91603 91609 91610 91611 91612 91614 91615 91616 91617 91618,34.0522342,-118.2436849,3792621,polygon,1840020491
Chicago,Chicago,IL,Illinois,Cook,17031,60018 60649 60641 60640 60643 60642 60645 60644 60647 60646 60616 60617 60614 60615 60612 60613 60610 60611 60618 60619 60661 60827 60638 60639 60634 60636 60637 60630 60631 60632 60633 60605 60604 60607 60606 60601 60603 60602 60609 60608 60106 60660 60659 60652 60653 60656 60657 60654 60655 60651 60623 60622 60621 60620 60626 60625 60624 60629 60628 60707 60664 60666 60668 60669 60670 60673 60674 60675 60677 60678 60680 60681 60684 60685 60686 60687 60688 60689 60690 60691 60693 60694 60695 60696 60697 60699 60701,41.850033,-87.6500523,2695598,polygon,1840000494
Houston,Houston,TX,Texas,Harris,48201,77069 77068 77061 77060 77063 77062 77065 77064 77067 77066 77346 77036 77037 77034 77035 77032 77033 77030 77031 77038 77449 77093 77046 77044 77040 77048 77201 77598 77018 77019 77015 77016 77017 77010 77011 77012 77013 77091 77092 77053 77345 77546 77025 77024 77027 77026 77021 77020 77023 77022 77029 77028 77094 77096 77090 77098 77099 77078 77079 77072 77073 77070 77071 77076 77077 77074 77075 77407 77047 77045 77043 77041 77336 77339 77338 77489 77003 77002 77007 77006 77005 77004 77009 77008 77450 77082 77086 77089 77088 77083 77081 77080 77087 77085 77084 77042 77054 77055 77056 77057 77058 77059 77396 77050 77051 77504 77001 77052 77202 77203 77204 77205 77206 77207 77208 77209 77210 77212 77213 77215 77216 77217 77218 77219 77220 77221 77222 77223 77224 77225 77226 77227 77228 77229 77230 77231 77233 77234 77235 77236 77237 77238 77240 77241 77242 77243 77244 77245 77248 77249 77251 77252 77253 77254 77255 77256 77257 77258 77259 77261 77262 77263 77265 77266 77267 77268 77269 77270 77271 77272 77273 77274 77275 77277 77279 77280 77282 77284 77287 77288 77289 77290 77291 77292 77293 77297 77299 77315 77411,29.7632836,-95.3632715,2099451,polygon,1840020925
Philadelphia,Philadelphia,PA,Pennsylvania,Philadelphia,42101,19154 19151 19150 19153 19152 19102 19103 19106 19107 19104 19109 19128 19129 19120 19121 19122 19123 19124 19125 19126 19127 19112 19111 19115 19114 19116 19119 19118 19148 19149 19146 19147 19144 19145 19142 19143 19140 19141 19139 19138 19137 19136 19135 19134 19133 19132 19131 19130 19019 19092 19093 19099 19101 19105 19108 19110 19155 19160 19161 19162 19170 19171 19172 19173 19175 19176 19177 19178 19179 19181 19182 19183 19184 19185 19187 19188 19190 19191 19192 19193 19194 19195 19196 19197 19244 19255,39.952335,-75.163789,1526006,polygon,1840000673
Phoenix,Phoenix,AZ,Arizona,Maricopa,4013,85008 85009 85003 85006 85007 85004 85083 85086 85087 85085 85383 85033 85304 85306 85308 85020 85021 85022 85023 85024 85027 85028 85029 85353 85013 85015 85014 85254 85044 85045 85042 85043 85040 85041 85048 85037 85035 85034 85032 85031 85019 85018 85012 85017 85016 85307 85310 85054 85051 85050 85053 85001 85002 85005 85010 85011 85025 85026 85030 85036 85038 85046 85060 85061 85062 85063 85064 85065 85066 85067 85068 85069 85070 85071 85072 85073 85074 85075 85076 85078 85079 85080 85082 85098,33.4483771,-112.0740373,1445632,polygon,1840020568
San Antonio,San Antonio,TX,Texas,Bexar,48029,78112 78233 78259 78258 78252 78251 78250 78257 78256 78255 78254 78208 78201 78202 78203 78204 78205 78207 78245 78242 78248 78231 78230 78232 78235 78234 78237 78239 78238 78209 78109 78266 78260 78219 78218 78217 78216 78215 78214 78213 78212 78211 78210 78244 78247 78240 78249 78023 78222 78223 78220 78221 78226 78227 78224 78225 78228 78229 78054 78206 78241 78246 78265 78268 78269 78270 78278 78279 78280 78283 78284 78285 78288 78289 78291 78292 78293 78294 78295 78296 78297 78298 78299,29.4241219,-98.4936282,1327407,polygon,1840022220
San Diego,San Diego,CA,California,San Diego,6073,92109 92108 92106 92103 92154 92110 92140 92107 92105 92104 92102 92071 92132 92130 92131 92134 92139 92025 92027 92147 92145 92014 92119 92111 92115 92117 92121 92120 92123 92122 92124 92127 92126 92129 92128 92101 92037 92173 92113 92114 92116 92038 92039 92072 92092 92093 92112 92137 92138 92142 92143 92149 92150 92152 92153 92158 92159 92160 92161 92163 92165 92166 92167 92168 92169 92170 92171 92172 92174 92175 92176 92177 92179 92182 92186 92187 92190 92191 92192 92193 92195 92196 92197 92198 92199,32.7153292,-117.1572551,1307402,polygon,1840021990
Dallas,Dallas,TX,Texas,Dallas,48113,75287 75098 75233 75230 75236 75237 75235 75254 75251 75252 75253 75043 75032 75238 75232 75231 75234 75088 75087 75243 75247 75244 75249 75248 75051 75166 75210 75211 75212 75214 75215 75216 75217 75218 75219 75390 75182 75229 75228 75220 75223 75225 75224 75227 75226 75241 75240 75246 75270 75207 75206 75205 75204 75203 75202 75201 75209 75208 75019 75221 75222 75242 75250 75260 75261 75262 75263 75264 75265 75266 75267 75275 75277 75283 75284 75285 75301 75303 75312 75313 75315 75320 75326 75336 75339 75342 75354 75355 75356 75357 75358 75359 75360 75367 75368 75370 75371 75372 75373 75374 75376 75378 75379 75380 75381 75382 75389 75391 75392 75393 75394 75395 75397 75398,32.7830556,-96.8066667,1197816,polygon,1840019440
San Jose,San Jose,CA,California,Santa Clara,6085,95119 95128 95124 95125 95008 95002 95117 95116 95111 95110 95113 95112 95118 95126 95127 95120 95121 95123 95148 95133 95132 95131 95130 95136 95135 95134 95139 95138 95037 95013 95129 95122 95101 95103 95106 95109 95115 95141 95150 95151 95153 95154 95155 95156 95157 95158 95159 95160 95161 95164 95170 95172 95173 95190 95191 95192 95193 95194 95196,37.3393857,-121.8949555,945942,polygon,1840021570
Jacksonville,Jacksonville,FL,Florida,Duval,12031,32224 32225 32226 32227 32220 32221 32222 32223 32228 32219 32218 32217 32216 32211 32210 32212 32246 32244 32233 32234 32250 32254 32257 32256 32208 32209 32206 32204 32205 32202 32258 32277 32207 32099 32201 32203 32214 32229 32231 32232 32235 32236 32237 32238 32239 32241 32245 32247 32255 32260,30.3321838,-81.655651,821784,polygon,1840015031
Indianapolis,Indianapolis,IN,Indiana,Marion,18097,46234 46218 46219 46217 46214 46260 46268 46225 46183 46231 46235 46236 46237 46239 46254 46250 46208 46201 46203 46202 46205 46204 46256 46259 46227 46226 46224 46222 46221 46220 46229 46228 46113 46278 46241 46240 46206 46207 46209 46210 46211 46230 46242 46244 46247 46249 46251 46253 46255 46262 46274 46275 46277 46282 46283 46285 46291 46296 46298,39.7683765,-86.1580423,820445,polygon,1840037394
San Francisco,San Francisco,CA,California,San Francisco,6075,94130 94131 94132 94133 94134 94108 94103 94102 94105 94104 94158 94124 94123 94122 94121 94129 94118 94112 94110 94116 94117 94114 94115 94111 94109 94107 94127 94119 94120 94125 94126 94137 94139 94140 94141 94142 94143 94144 94145 94146 94147 94151 94159 94160 94161 94163 94164 94172 94177 94188,37.7749295,-122.4194155,805235,polygon,1840021543
Austin,Austin,TX,Texas,Travis,48453,78749 78748 78741 78742 78745 78744 78747 78746 78717 78712 78719 78617 78739 78735 78730 78731 78732 78733 78705 78704 78701 78703 78702 78758 78759 78752 78753 78750 78751 78756 78757 78754 78652 78723 78722 78721 78727 78726 78725 78724 78729 78728 73301 73344 78651 78708 78709 78710 78711 78713 78714 78715 78716 78718 78720 78755 78760 78761 78762 78763 78764 78765 78766 78767 78768 78769 78772 78773 78774 78778 78779 78783 78799,30.267153,-97.7430608,790390,polygon,1840019590
Columbus,Columbus,OH,Ohio,Franklin,39049,43026 43109 43054 43228 43220 43221 43222 43223 43224 43227 43210 43213 43212 43215 43214 43217 43219 43002 43004 43068 43081 43085 43240 43229 43235 43232 43231 43230 43119 43110 43017 43016 43137 43211 43202 43203 43201 43206 43207 43204 43205 43209 43216 43218 43226 43234 43236 43251 43260 43266 43268 43270 43271 43272 43279 43287 43291,39.9611755,-82.9987942,787033,polygon,1840003760
Fort Worth,Fort Worth,TX,Texas,Tarrant,48439,76164 76040 76134 76135 76137 76131 76132 76133 76109 76108 76105 76104 76107 76106 76103 76102 76155 76053 76052 76123 76120 76244 76006 76008 76179 76177 76036 76140 76262 76129 76118 76119 76116 76117 76114 76115 76112 76110 76111 76127 76101 76113 76121 76122 76124 76130 76136 76147 76150 76161 76162 76163 76166 76181 76185 76191 76192 76193 76195 76196 76197 76198 76199,32.725409,-97.3208496,741206,polygon,1840020696
Charlotte,Charlotte,NC,North Carolina,Mecklenburg,37119,28269 28262 28105 28280 28282 28209 28208 28205 28204 28207 28206 28203 28202 28227 28226 28278 28270 28273 28277 28134 28216 28217 28214 28215 28212 28213 28210 28211 28244 28126 28130 28201 28218 28219 28220 28221 28222 28223 28224 28228 28229 28230 28231 28232 28233 28234 28235 28236 28237 28241 28242 28243 28246 28247 28253 28254 28255 28256 28258 28260 28263 28265 28266 28271 28272 28274 28275 28281 28284 28285 28287 28288 28289 28290 28296 28297 28299,35.2270869,-80.8431268,731424,polygon,1840014557
Detroit,Detroit,MI,Michigan,Wayne,26163,48209 48208 48201 48207 48206 48205 48204 48203 48227 48226 48238 48239 48234 48235 48233 48202 48243 48228 48214 48215 48216 48217 48210 48211 48212 48213 48219 48224 48221 48223 48222 48231 48232 48244 48255 48260 48264 48265 48266 48267 48268 48269 48272 48275 48277 48278 48279 48288,42.331427,-83.0457538,713777,polygon,1840003971
El Paso,El Paso,TX,Texas,El Paso,48141,79901 79902 79903 79904 79905 79906 79907 79835 79930 79932 79935 79934 79936 79912 79911 79922 79920 79927 79924 79925 79915 79910 79913 79914 79917 79918 79923 79926 79929 79931 79937 79940 79941 79943 79944 79945 79946 79947 79948 79949 79950 79951 79952 79953 79954 79955 79958 79960 79961 79968 79976 79978 79980 79995 79996 79997 79998 79999 88510 88511 88512 88513 88514 88515 88517 88518 88519 88520 88521 88523 88524 88525 88526 88527 88528 88529 88530 88531 88532 88533 88534 88535 88536 88538 88539 88540 88541 88542 88543 88544 88545 88546 88547 88548 88549 88550 88553 88554 88555 88556 88557 88558 88559 88560 88561 88562 88563 88565 88566 88567 88568 88569 88570 88571 88572 88573 88574 88575 88576 88577 88578 88579 88580 88581 88582 88583 88584 88585 88586 88587 88588 88589 88590 88595,31.7587198,-106.4869314,649121,polygon,1840020804
Memphis,Memphis,TN,Tennessee,Shelby,47157,38120 38126 38107 38106 38105 38104 38103 38109 38108 38152 38132 38133 38131 38141 38112 38114 38111 38115 38116 38117 38118 38119 38018 38016 38134 38128 38122 38125 38127 37501 37544 38101 38113 38124 38130 38136 38137 38145 38148 38150 38151 38157 38159 38161 38163 38166 38167 38168 38173 38174 38175 38177 38181 38182 38184 38186 38187 38188 38190 38193 38194 38197,35.1495343,-90.0489801,646889,polygon,1840015457
Baltimore,Baltimore,MD,Maryland,Baltimore (city),24510,21218 21211 21210 21213 21212 21215 21214 21217 21216 21231 21230 21239 21251 21209 21202 21206 21207 21205 21223 21201 21224 21225 21226 21229 21203 21233 21235 21241 21263 21264 21270 21273 21275 21278 21279 21280 21281 21282 21284 21285 21287 21288 21289 21290 21297 21298,39.2903848,-76.6121893,620961,polygon,1840001592
Boston,Boston,MA,Massachusetts,Suffolk,25025,02120 02121 02122 02124 02125 02126 02127 02128 02129 02210 02215 02467 02119 02118 02111 02110 02113 02115 02114 02116 02199 02134 02136 02135 02132 02131 02130 02203 02163 02152 02108 02109 02112 02117 02123 02133 02137 02196 02201 02204 02205 02206 02211 02212 02217 02222 02241 02266 02283 02284 02293 02297 02298,42.3584308,-71.0597732,617594,polygon,1840000455
Seattle,Seattle,WA,Washington,King,53033,98109 98108 98104 98107 98106 98101 98103 98102 98105 98154 98122 98121 98126 98125 98178 98174 98177 98144 98146 98195 98199 98118 98119 98116 98117 98115 98112 98164 98134 98136 98133 98111 98113 98114 98124 98127 98129 98139 98141 98145 98161 98165 98170 98175 98181 98185 98191 98194,47.6062095,-122.3320708,608660,polygon,1840021117
Washington,Washington,DC,District of Columbia,District of Columbia,11001,20010 20011 20012 20015 20228 20520 20307 20064 20418 20020 20024 20510 20593 20540 20240 20245 20007 20006 20004 20003 20002 20001 20009 20008 20204 20535 20317 20319 20405 20390 20057 20052 20053 20017 20018 20565 20566 20560 20551 20553 20230 20373 20260 20427 20005 20032 20036 20037 20202 20506 20045 20016 20019 20013 20022 20026 20027 20029 20030 20033 20035 20038 20039 20040 20041 20042 20043 20044 20047 20049 20050 20055 20056 20058 20059 20060 20061 20062 20063 20065 20066 20067 20068 20069 20070 20071 20073 20074 20075 20076 20077 20078 20080 20081 20082 20090 20091 20189 20201 20203 20206 20207 20208 20210 20211 20212 20213 20214 20215 20216 20217 20218 20219 20220 20221 20222 20223 20224 20226 20227 20229 20232 20233 20235 20237 20238 20239 20241 20242 20244 20250 20251 20252 20254 20261 20262 20265 20266 20268 20270 20277 20289 20299 20301 20303 20306 20310 20314 20318 20330 20340 20350 20355 20370 20372 20374 20375 20376 20380 20388 20389 20391 20392 20393 20394 20395 20398 20401 20402 20403 20404 20406 20407 20408 20409 20410 20411 20412 20413 20414 20415 20416 20417 20419 20420 20421 20422 20423 20424 20425 20426 20428 20429 20431 20433 20434 20435 20436 20437 20439 20440 20441 20442 20444 20447 20451 20453 20456 20460 20463 20468 20469 20470 20472 20500 20501 20502 20503 20504 20505 20507 20508 20509 20511 20515 20521 20522 20523 20524 20525 20526 20527 20528 20529 20530 20531 20533 20534 20536 20537 20538 20539 20541 20542 20543 20544 20546 20547 20548 20549 20552 20554 20555 20557 20559 20570 20571 20572 20573 20575 20576 20577 20578 20579 20580 20581 20585 20586 20588 20590 20591 20594 20597 20599 56901 56902 56904 56908 56915 56920 56933 56935 56944 56945 56950 56965 56967 56972 56998 56999,38.8951118,-77.0363658,601723,polygon,1840006060
Nashville,Nashville,TN,Tennessee,Davidson,47037,37027 37138 37076 37072 37205 37240 37243 37246 37080 37218 37219 37216 37217 37214 37215 37212 37213 37210 37211 37189 37209 37208 37204 37207 37206 37201 37203 37115 37013 37228 37221 37220 37143 37011 37116 37202 37222 37224 37227 37229 37230 37232 37234 37235 37236 37238 37241 37242 37244 37250,36.1658899,-86.7844432,601222,polygon,1840038081
Denver,Denver,CO,Colorado,Denver,8031,80264 80218 80230 80231 80236 80237 80235 80238 80239 80123 80249 80247 80246 80290 80293 80294 80219 80210 80211 80212 80216 80221 80220 80223 80222 80224 80227 80209 80207 80206 80205 80204 80202 80014 80203 80201 80208 80217 80225 80243 80244 80248 80250 80251 80252 80256 80257 80259 80261 80262 80263 80265 80266 80271 80273 80274 80281 80291 80299,39.7391536,-104.9847034,600158,polygon,1840018789
Louisville,Louisville,KY,Kentucky,Jefferson,21111,40202,38.2542376,-85.759407,597337,point,1840037561
Milwaukee,Milwaukee,WI,Wisconsin,Milwaukee,55079,53203 53202 53207 53206 53205 53204 53209 53208 53233 53218 53219 53214 53215 53216 53210 53211 53212 53213 53295 53225 53224 53227 53226 53221 53220 53223 53222 53228 53201 53234 53237 53259 53263 53274 53278 53288 53290 53293,43.0389025,-87.9064736,594833,polygon,1840003046
Portland,Portland,OR,Oregon,Multnomah,41051,97227 97221 97220 97229 97203 97202 97201 97206 97205 97204 97209 97208 97266 97218 97213 97236 97232 97233 97230 97239 97219 97214 97215 97216 97217 97210 97211 97212 97207 97228 97238 97240 97242 97250 97251 97252 97253 97254 97256 97258 97280 97282 97283 97286 97290 97291 97292 97293 97294 97296,45.5234515,-122.6762071,583776,polygon,1840019941
Las Vegas,Las Vegas,NV,Nevada,Clark,32003,89117 89146 89106 89104 89102 89101 89108 89107 89138 89130 89131 89134 89143 89145 89144 89149 89110 89129 89128 89124 88901 88905 89114 89116 89125 89127 89133 89137 89151 89152 89153 89155 89158 89163 89164 89180 89185 89195,36.1749705,-115.137223,583756,polygon,1840020364
Oklahoma City,Oklahoma City,OK,Oklahoma,Oklahoma,40109,73012 73099 73097 73119 73118 73114 73117 73116 73111 73112 73020 73013 74857 73142 73141 73145 73149 73078 73108 73109 73104 73139 73132 73131 73135 73134 73008 73084 73162 73103 73054 73151 73150 73159 73064 73106 73107 73105 73102 73179 73173 73170 73049 73169 73165 73127 73120 73121 73122 73128 73129 73101 73113 73123 73124 73125 73126 73136 73137 73140 73143 73144 73146 73147 73148 73152 73153 73154 73155 73156 73157 73163 73164 73167 73172 73178 73184 73189 73190 73194 73195 73196,35.4715076,-97.54021069,579999,polygon,1840020428
Albuquerque,Albuquerque,NM,New Mexico,Bernalillo,35001,87123 87121 87112 87113 87110 87111 87116 87114 87109 87108 87102 87105 87104 87107 87106 87120 87101 87103 87115 87119 87125 87131 87151 87153 87154 87158 87176 87181 87184 87185 87187 87190 87191 87192 87193 87194 87195 87196 87197 87198 87199,35.0844909,-106.6511367,545852,polygon,1840019176
Tucson,Tucson,AZ,Arizona,Pima,4019,85705 85707 85706 85710 85756 85723 85726 85724 85701 85708 85711 85719 85748 85745 85747 85716 85714 85715 85712 85713 85730 85702 85703 85709 85717 85720 85721 85722 85725 85731 85732 85738 85751 85754 85775,32.2217429,-110.926479,520116,polygon,1840022101
Fresno,Fresno,CA,California,Fresno,6019,93720 93730 93650 93702 93703 93701 93706 93704 93705 93722 93727 93728 93721 93726 93711 93710 93707 93708 93709 93714 93715 93716 93717 93718 93724 93729 93740 93744 93750 93755 93760 93761 93764 93765 93771 93772 93774 93775 93776 93777 93778 93779 93790 93791 93792 93793 93794 93844,36.7477272,-119.7723661,494665,polygon,1840020319
Staten Island,Staten Island,NY,New York,Richmond County,36085,10314,40.58328072,-74.14981238,470728,point,1840038129
Sacramento,Sacramento,CA,California,Sacramento,6067,95820 95838 95832 95833 95831 95834 95835 95811 95814 95815 95816 95818 95819 95828 95821 95823 95822 95825 95824 95826 95817 94203 94204 94205 94207 94208 94209 94211 94229 94230 94232 94234 94235 94236 94237 94239 94240 94244 94245 94247 94248 94249 94250 94252 94254 94256 94257 94258 94259 94261 94262 94263 94267 94268 94269 94271 94273 94274 94277 94278 94279 94280 94282 94283 94284 94285 94286 94287 94288 94289 94290 94291 94293 94294 94295 94296 94297 94298 94299 95812 95813 95840 95851 95852 95853 95867 95894,38.5815719,-121.4943996,466488,polygon,1840021491
Long Beach,Long Beach,CA,California,Los Angeles,6037,90822 90804 90805 90806 90807 90802 90803 90808 90831 90813 90810 90815 90814 90801 90832 90833 90834 90835 90840 90842 90844 90846 90847 90848 90853 90899,33.7669623,-118.1892348,462257,polygon,1840020490
Kansas City,Kansas City,MO,Missouri,Jackson,29095,64163 64165 64167 64161 64053 64116 64151 64153 64155 64154 64157 64156 64158 64108 64109 64102 64106 64128 64124 64125 64126 64127 64120 64123 64129 64164 64166 64192 64119 64118 64114 64117 64111 64110 64113 64112 64133 64146 64145 64149 64147 64105 64101 64139 64138 64132 64131 64130 64137 64136 64134 64121 64141 64144 64148 64162 64168 64170 64171 64179 64180 64184 64187 64188 64190 64191 64195 64196 64197 64198 64199 64999,39.0997266,-94.5785667,459787,polygon,1840008535
Mesa,Mesa,AZ,Arizona,Maricopa,4013,85208 85209 85201 85202 85203 85204 85205 85206 85207 85212 85215 85213 85210 85211 85214 85216 85274 85275 85277,33.4222685,-111.8226402,439041,polygon,1840020566
Virginia Beach,Virginia Beach,VA,Virginia,Virginia Beach (city),51810,23459 23451 23453 23452 23455 23457 23456 23454 23460 23461 23462 23464 23450 23458 23463 23465 23466 23467 23471 23479,36.8529263,-75.977985,437994,polygon,1840003871
Atlanta,Atlanta,GA,Georgia,Fulton,13121,30334 30331 30332 30309 30308 30307 30303 30354 30327 30326 30324 30342 30305 30306 30319 30316 30317 30314 30315 30312 30313 30310 30311 30363 30318 30301 30302 30304 30321 30325 30343 30348 30353 30355 30357 30358 30361 30362 30368 30369 30370 30371 30375 30377 30378 30380 30385 30388 30392 30394 30396 30398 31106 31107 31119 31126 31131 31139 31141 31145 31146 31150 31156 31192 31193 31195 31196 39901,33.7489954,-84.3879824,420003,polygon,1840013660
Colorado Springs,Colorado Springs,CO,Colorado,El Paso,8041,80951 80909 80904 80905 80906 80907 80903 80939 80938 80910 80917 80916 80915 80914 80919 80918 80927 80924 80925 80922 80923 80920 80921 80929 80901 80912 80931 80932 80933 80934 80935 80936 80937 80941 80942 80944 80946 80947 80949 80950 80960 80962 80970 80977 80995 80997,38.8338816,-104.8213634,416427,polygon,1840018825
Omaha,Omaha,NE,Nebraska,Douglas,31055,68112 68114 68117 68118 68106 68107 68105 68108 68178 68164 68110 68122 68127 68124 68022 68111 68116 68137 68135 68144 68134 68132 68131 68130 68102 68104 68154 68152 68101 68103 68109 68119 68139 68145 68172 68175 68176 68179 68180 68182 68183 68198,41.2586096,-95.937792,408958,polygon,1840009315
Raleigh,Raleigh,NC,North Carolina,Wake,37183,27617 27616 27615 27614 27613 27612 27610 27608 27609 27601 27603 27604 27605 27606 27607 27602 27611 27619 27620 27621 27622 27623 27624 27625 27626 27627 27628 27629 27634 27635 27636 27640 27650 27656 27658 27661 27668 27675 27676 27690 27695 27697 27698 27699,35.772096,-78.6386145,403892,polygon,1840014497
Miami,Miami,FL,Florida,Miami-Dade,12086,33128 33129 33125 33126 33127 33149 33144 33145 33142 33139 33138 33137 33136 33135 33134 33133 33132 33131 33130 33150 33101 33109 33102 33111 33114 33116 33119 33124 33151 33152 33153 33163 33164 33188 33192 33195 33197 33199 33222 33231 33233 33234 33238 33239 33242 33243 33245 33247 33255 33256 33257 33261 33265 33266 33269 33280 33283 33296 33299,25.7742658,-80.1936589,399457,polygon,1840015149
Cleveland,Cleveland,OH,Ohio,Cuyahoga,39035,44135 44119 44113 44112 44111 44110 44115 44114 44144 44128 44127 44120 44104 44105 44106 44101 44102 44103 44108 44109 44181 44188 44190 44191 44192 44193 44194 44195 44197 44198 44199,41.4994954,-81.6954088,396815,polygon,1840000596
Tulsa,Tulsa,OK,Oklahoma,Tulsa,40143,74133 74130 74137 74135 74132 74136 74134 74145 74110 74112 74114 74115 74117 74119 74015 74105 74129 74128 74120 74127 74126 74116 74107 74104 74103 74146 74106 74108 74101 74102 74121 74141 74147 74148 74149 74150 74152 74153 74155 74156 74157 74158 74159 74169 74170 74171 74172 74182 74186 74187 74192 74193,36.157929,-96.01655809,391906,polygon,1840021672
Oakland,Oakland,CA,California,Alameda,6001,94621 94705 94704 94611 94610 94613 94619 94612 94618 94606 94607 94602 94603 94601 94608 94605 94609 94604 94614 94615 94617 94620 94623 94624 94649 94659 94660 94661 94666,37.8043722,-122.2708026,390724,polygon,1840020296
Minneapolis,Minneapolis,MN,Minnesota,Hennepin,27053,55404 55403 55409 55408 55407 55406 55405 55402 55401 55455 55430 55454 55418 55419 55410 55411 55412 55413 55414 55415 55416 55417 55440 55458 55459 55460 55467 55470 55472 55473 55474 55478 55479 55480 55483 55484 55485 55486 55487 55488,44.9799654,-93.2638361,382578,polygon,1840007830
Wichita,Wichita,KS,Kansas,Sedgwick,20173,67230 67235 67223 67260 67217 67216 67215 67214 67213 67212 67211 67210 67219 67218 67220 67226 67202 67203 67204 67205 67206 67207 67208 67209 67201 67275 67276 67277 67278,37.6922361,-97.3375448,382368,polygon,1840001686
San Juan,San Juan,PR,Puerto Rico,San Juan,72127,00918 00913 00911 00917 00915 00912 00926 00927 00924 00925 00923 00920 00921 00906 00907 00901 00909 00936 00969 00902 00908 00910 00914 00916 00919 00922 00928 00929 00930 00931 00933 00935 00937 00939 00940 00955 00975,18.4663338,-66.1057217,381931,polygon,1630023655
Arlington,Arlington,TX,Texas,Tarrant,48439,76040 76011 76006 76001 76002 76018 76013 76012 76010 76017 76016 76015 76014 76003 76004 76005 76007 76019 76094 76096,32.735687,-97.1080656,365438,polygon,1840019422
Bakersfield,Bakersfield,CA,California,Kern,6029,93306 93307 93304 93305 93301 93309 93314 93311 93313 93312 93302 93384 93385 93387 93389 93390,35.3732921,-119.0187125,347483,polygon,1840019148
New Orleans,New Orleans,LA,Louisiana,Orleans,22071,70139 70130 70131 70114 70115 70116 70117 70112 70113 70118 70119 70129 70128 70125 70124 70127 70126 70122 70163 70141 70142 70143 70145 70146 70148 70150 70151 70152 70153 70154 70156 70157 70158 70159 70160 70161 70162 70164 70165 70166 70167 70170 70172 70174 70175 70176 70177 70178 70179 70181 70182 70183 70184 70185 70186 70187 70189 70190 70195,29.9546482,-90.075072,343829,polygon,1840001839
Anaheim,Anaheim,CA,California,Orange,6059,92808 92806 92807 92804 92805 92802 92801 92803 92809 92812 92814 92815 92816 92817 92825 92850 92899,33.8352932,-117.9145036,336265,polygon,1840019322
Tampa,Tampa,FL,Florida,Hillsborough,12057,33629 33621 33620 33647 33609 33606 33619 33616 33613 33611 33617 33614 33610 33612 33603 33637 33605 33604 33607 33602 33601 33608 33622 33623 33630 33631 33633 33646 33650 33655 33660 33661 33662 33663 33664 33672 33673 33674 33675 33677 33679 33680 33681 33682 33684 33685 33686 33687 33688 33689 33694,27.9475216,-82.4584279,335709,polygon,1840015982
Aurora,Aurora,CO,Colorado,Arapahoe,8005,80247 80137 80045 80018 80019 80016 80017 80014 80015 80012 80013 80010 80011 80040 80041 80042 80044 80046 80047,39.7294319,-104.8319195,325078,polygon,1840018794
Santa Ana,Santa Ana,CA,California,Orange,6059,92703 92701 92705 92704 92707 92706 92702 92712 92735 92799,33.7455731,-117.8678338,324528,polygon,1840021964
Saint Louis,Saint Louis,MO,Missouri,St. Louis (city),29510,63110 63111 63112 63113 63115 63116 63118 63120 63139 63107 63106 63104 63103 63102 63101 63109 63108 63155 63137 63143 63147 63145 63150 63151 63156 63157 63158 63160 63163 63164 63166 63167 63169 63171 63177 63178 63179 63180 63182 63188 63195 63197 63199,38.6272733,-90.1978889,319294,polygon,1840001651
Pittsburgh,Pittsburgh,PA,Pennsylvania,Allegheny,42003,15216 15217 15214 15212 15210 15211 15218 15219 15290 15232 15260 15233 15205 15204 15207 15206 15201 15203 15208 15213 15234 15222 15221 15220 15226 15224 15120 15230 15231 15240 15242 15244 15250 15251 15252 15253 15254 15255 15257 15258 15259 15261 15262 15264 15265 15267 15268 15270 15272 15274 15275 15276 15277 15278 15279 15281 15282 15283 15286 15289 15295,40.4406248,-79.9958864,305704,polygon,1840001254
Corpus Christi,Corpus Christi,TX,Texas,Nueces,48355,78373 78408 78409 78406 78407 78404 78405 78402 78401 78419 78418 78415 78414 78417 78416 78411 78410 78413 78412 78347 78403 78426 78427 78460 78463 78465 78466 78467 78468 78469 78472 78480,27.8005828,-97.396381,305215,polygon,1840019718
Riverside,Riverside,CA,California,Riverside,6065,92508 92503 92501 92505 92504 92507 92506 92502 92513 92514 92516 92517 92521 92522,33.9533487,-117.3961564,303871,polygon,1840020551
Cincinnati,Cincinnati,OH,Ohio,Hamilton,39061,45219 45213 45212 45211 45217 45216 45214 45233 45226 45227 45224 45225 45220 45237 45229 45232 45230 45204 45205 45206 45207 45202 45203 45208 45209 45223 45239 45238 45201 45221 45222 45234 45235 45250 45253 45254 45258 45262 45263 45264 45267 45268 45269 45270 45271 45273 45274 45275 45277 45296 45298 45299 45999,39.1146631,-84.52968641,296943,polygon,1840003814
Lexington,Lexington,KY,Kentucky,Fayette,21067,40504 40506 40508 40509 40505 40507 40502 40503 40513 40517 40511 40510 40516 40515 40514 40512 40522 40523 40524 40526 40533 40536 40544 40546 40550 40555 40574 40575 40576 40577 40578 40579 40580 40581 40582 40583 40588 40591 40598,38.0497996,-84.4585485,295803,polygon,1840015211
Anchorage,Anchorage,AK,Alaska,Anchorage,2020,99518 99515 99517 99516 99513 99540 99567 99587 99508 99506 99507 99504 99505 99502 99503 99501 99577 99509 99511 99514 99520 99521 99522 99523 99524 99529 99530 99599,61.2180556,-149.9002778,291826,polygon,1840023385
Stockton,Stockton,CA,California,San Joaquin,6077,95212 95210 95211 95219 95209 95205 95207 95206 95202 95204 95203 95201 95267 95269 95296 95297,37.9577016,-121.2907796,291707,polygon,1840021517
Toledo,Toledo,OH,Ohio,Lucas,39095,43615 43611 43613 43612 43614 43610 43606 43607 43604 43605 43608 43609 43620 43623 43601 43603 43635 43652 43654 43656 43657 43659 43660 43661 43666 43667 43681 43682 43697 43699,41.6639383,-83.555212,287208,polygon,1840000572
Saint Paul,Saint Paul,MN,Minnesota,Ramsey,27123,55114 55117 55116 55119 55130 55101 55155 55102 55103 55106 55107 55104 55105 55108 55133 55144 55145 55146 55164 55165 55170 55172 55175 55188,44.9444101,-93.0932742,285068,polygon,1840008940
Newark,Newark,NJ,New Jersey,Essex,34013,07103 07102 07105 07104 07107 07106 07108 07112 07114 07101 07175 07184 07188 07189 07191 07192 07193 07195 07198 07199,40.735657,-74.1723667,277140,polygon,1840002791
Greensboro,Greensboro,NC,North Carolina,Guilford,37081,27410 27455 27214 27408 27409 27403 27401 27406 27407 27405 27402 27404 27411 27412 27413 27415 27416 27417 27419 27420 27425 27427 27429 27435 27438 27495 27497 27498 27499,36.0726355,-79.7919754,269666,polygon,1840013356
Buffalo,Buffalo,NY,New York,Erie,36029,14208 14209 14202 14203 14201 14206 14207 14204 14220 14222 14218 14211 14210 14213 14212 14215 14214 14216 14205 14231 14233 14240 14241 14260 14263 14264 14265 14267 14269 14270 14272 14273 14276 14280,42.8864468,-78.8783689,261310,polygon,1840000386
Plano,Plano,TX,Texas,Collin,48085,75093 75023 75025 75024 75074 75075 75026 75086,33.0198431,-96.6988856,259841,polygon,1840020662
Lincoln,Lincoln,NE,Nebraska,Lancaster,31109,68528 68524 68526 68520 68521 68522 68516 68510 68512 68506 68507 68504 68505 68502 68503 68508 68501 68509 68529 68542 68544 68583 68588,40.8000011,-96.6669599,258379,polygon,1840009357
Henderson,Henderson,NV,Nevada,Clark,32003,89044 89052 89002 89074 89015 89014 89011 89012 89009 89077 89105 89140,36.0396988,-114.9819368,257729,polygon,1840020361
Fort Wayne,Fort Wayne,IN,Indiana,Allen,18003,46835 46845 46818 46814 46815 46816 46825 46803 46802 46807 46806 46805 46804 46809 46808 46801 46850 46851 46852 46853 46854 46855 46856 46857 46858 46859 46860 46861 46862 46863 46864 46865 46866 46867 46868 46869 46885 46895 46896 46897 46898 46899,41.1306041,-85.1288597,253691,polygon,1840008261
Jersey City,Jersey City,NJ,New Jersey,Hudson,34017,07310 07311 07302 07307 07306 07305 07304 07097 07303 07308 07395 07399,40.7281575,-74.0776417,247597,polygon,1840003600
Saint Petersburg,Saint Petersburg,FL,Florida,Pinellas,12103,33705 33707 33702 33762 33713 33712 33711 33710 33716 33715 33714 33701 33703 33704 33729 33730 33731 33732 33733 33734 33736 33737 33738 33740 33741 33742 33743 33747 33784,27.7708606,-82.6792661,244769,polygon,1840015977
Chula Vista,Chula Vista,CA,California,San Diego,6073,91911 91910 91913 91915 91914 91902 91908 91909 91912 91921,32.6400541,-117.0841955,243916,polygon,1840019350
Norfolk,Norfolk,VA,Virginia,Norfolk (city),51710,23509 23508 23504 23503 23502 23507 23505 23551 23518 23513 23517 23523 23510 23511 23501 23506 23514 23515 23519 23529 23541,36.8468146,-76.2852183,242803,polygon,1840003869
Orlando,Orlando,FL,Florida,Orange,12095,32829 32827 32824 32822 32804 32805 32806 32807 32801 32803 32808 32839 32835 32832 32819 32812 32811 32814 32802 32816 32834 32853 32854 32855 32856 32857 32858 32859 32860 32861 32862 32867 32868 32869 32872 32877 32878 32885 32886 32887 32891 32897,28.5383355,-81.3792365,238300,polygon,1840015099
Chandler,Chandler,AZ,Arizona,Maricopa,4013,85248 85249 85226 85224 85225 85286 85246,33.3061605,-111.8412502,236123,polygon,1840019309
Laredo,Laredo,TX,Texas,Webb,48479,78046 78045 78043 78040 78041 78042,27.506407,-99.5075421,236091,polygon,1840021002
Madison,Madison,WI,Wisconsin,Dane,55025,53706 53704 53705 53703 53726 53792 53719 53718 53715 53714 53717 53716 53711 53713 53701 53707 53708 53725 53744 53774 53777 53778 53779 53782 53783 53784 53785 53786 53788 53789 53790 53791 53793 53794,43.0730517,-89.4012302,233209,polygon,1840002915
Winston-Salem,Winston-Salem,NC,North Carolina,Forsyth,37067,27110 27127 27040 27107 27106 27105 27104 27103 27101 27109 27010 27102 27108 27111 27113 27114 27115 27116 27117 27120 27130 27150 27152 27155 27157 27198 27199,36.0998596,-80.244216,229617,polygon,1840015324
Lubbock,Lubbock,TX,Texas,Lubbock,48303,79404 79407 79423 79424 79416 79412 79410 79414 79411 79406 79401 79403 79415 79413 79402 79408 79409 79430 79452 79453 79457 79464 79490 79491 79493 79499,33.5778631,-101.8551665,229573,polygon,1840020604
Baton Rouge,Baton Rouge,LA,Louisiana,East Baton Rouge,22033,70836 70808 70809 70802 70803 70801 70806 70807 70805 70820 70819 70811 70815 70814 70816 70804 70813 70821 70822 70823 70825 70826 70827 70831 70833 70835 70837 70873 70874 70879 70884 70891 70892 70893 70894 70895 70896 70898,30.4507462,-91.154551,229493,polygon,1840013941
Durham,Durham,NC,North Carolina,Durham,37063,27701 27703 27704 27707 27705 27709 27712 27713 27702 27706 27708 27710 27711 27715 27717 27722,35.9940329,-78.898619,228330,polygon,1840013364
Garland,Garland,TX,Texas,Dallas,48113,75043 75041 75040 75042 75044 75045 75046 75047 75049,32.912624,-96.6388833,226876,polygon,1840020707
Glendale,Glendale,AZ,Arizona,Maricopa,4013,85301 85303 85302 85304 85306 85309 85308 85305 85307 85310 85311 85312 85318,33.5386523,-112.1859866,226721,polygon,1840020563
Reno,Reno,NV,Nevada,Washoe,32031,89521 89523 89439 89503 89502 89501 89506 89509 89508 89519 89512 89504 89505 89507 89513 89515 89520 89533 89555 89557 89570 89595 89599,39.5296329,-119.8138027,225221,polygon,1840020121
Hialeah,Hialeah,FL,Florida,Miami-Dade,12086,33014 33016 33010 33012 33013 33018 33002 33011 33017,25.8575963,-80.2781057,224669,polygon,1840015157
Chesapeake,Chesapeake,VA,Virginia,Chesapeake (city),51550,23325 23324 23323 23322 23321 23320 23326 23327 23328,36.8190369,-76.2749399,222209,polygon,1840003874
Scottsdale,Scottsdale,AZ,Arizona,Maricopa,4013,85259 85258 85251 85250 85257 85255 85254 85266 85262 85260 85252 85261 85267 85271,33.5092103,-111.8990327,217385,polygon,1840021940
North Las Vegas,North Las Vegas,NV,Nevada,Clark,32003,89032 89031 89030 89086 89084 89085 89081 89115 89033 89087,36.1988592,-115.1175013,216961,polygon,1840020363
Irving,Irving,TX,Texas,Dallas,48113,75060 75063 75062 75061 75038 75039 75014 75015 75016 75017,32.8140177,-96.9488945,216290,polygon,1840019438
Fremont,Fremont,CA,California,Alameda,6001,94536 94538 94539 94555 94537,37.5482697,-121.9885719,214089,polygon,1840020292
Irvine,Irvine,CA,California,Orange,6059,92617 92614 92612 92618 92620 92602 92603 92604 92606 92616 92619 92623 92650 92697 92698,33.6694649,-117.8231107,212375,polygon,1840019325
Birmingham,Birmingham,AL,Alabama,Jefferson,1073,35218 35214 35215 35217 35210 35211 35212 35213 35224 35221 35222 35228 35203 35207 35206 35205 35204 35209 35208 35254 35068 35061 35234 35235 35233 35243 35242 35142 35201 35202 35219 35220 35231 35232 35236 35237 35238 35246 35249 35253 35255 35259 35260 35261 35266 35270 35282 35283 35285 35287 35288 35290 35291 35292 35293 35294 35295 35296 35297 35298,33.5206608,-86.80249,212237,polygon,1840013733
Rochester,Rochester,NY,New York,Monroe,36055,14608 14609 14606 14607 14604 14605 14627 14620 14621 14619 14615 14614 14617 14611 14610 14613 14612 14602 14603 14638 14639 14642 14643 14644 14646 14647 14649 14650 14651 14652 14653 14692 14694,43.1547845,-77.6155568,210565,polygon,1840000373
San Bernardino,San Bernardino,CA,California,San Bernardino,6071,92404 92401 92407 92405 92408 92411 92410 92346 92403 92406 92415 92418 92423 92427,34.1083449,-117.2897652,209924,polygon,1840021728
